{   "originLocation": {
        "locationName": "Geo Located Place",
        "latitude": 42.6793,
        "longitude": 21.0516
    }
    ,
    "locations": [
        {
            "locationName": "Peja",
            "latitude": 42.6593,
            "longitude": 20.2887
        },
        {
            "locationName": "Istog",
            "latitude": 42.7820,
            "longitude": 20.4911
        },
        {
            "locationName": "Gjakova",
            "latitude": 42.3844,
            "longitude": 20.4285
        },
        {
            "locationName": "Mitrovica",
            "latitude": 42.8914,
            "longitude": 20.8660
        },
        {
            "locationName": "Prishtina",
            "latitude": 42.6629,
            "longitude": 21.1655
        },
        {
            "locationName": "Gjilani",
            "latitude": 42.4635,
            "longitude": 21.4694
        },
        {
            "locationName": "Prizreni",
            "latitude": 42.2171,
            "longitude": 20.7436
        },
        {
            "locationName": "Tirana",
            "latitude": 41.3275,
            "longitude": 19.8187
        },
        {
            "locationName": "Tetova",
            "latitude": 42.0069,
            "longitude": 20.9715
        },
        {
            "locationName": "Shkupi",
            "latitude": 41.9981,
            "longitude": 21.4254
        }
        
        
    ]
}